
[
{"countryID":"2","Country":"Thailand","city":"Bangkok","Description":"Famous for its ancient temples, bustling markets, spicy cuisine, and tropical beaches. Thailand offers a mix of bustling cities like Bangkok and serene areas like Chiang Mai.\r\n","Longitude":"100.502","latitude":"13.7563","img":"https:\/\/www.littlediscoveries.net\/site\/assets\/files\/1232\/01-bangkok-02-2016-littlediscoveriesnet.2560x1024.jpg"},
{"countryID":"9","Country":"United Kingdom","city":"London","Description":"Comprising England, Scotland, Wales, and Northern Ireland, the UK offers a blend of history, culture, and modernity. Iconic landmarks include Big Ben, Stonehenge, and Edinburgh Castle.","Longitude":"-0.1257","latitude":"51.5085","img":"https:\/\/th.bing.com\/th\/id\/OIP.kIFpkGKy-K7TAeARup6JUwHaE7?w=283&h=187&c=7&r=0&o=5&dpr=1.3&pid=1.7"},
{"countryID":"11","Country":"Japan","city":"Tokyo","Description":"A country that seamlessly blends ancient traditions with modern technology. Known for its cherry blossoms, sushi, tea ceremonies, rich history, Shinto shrines, bullet trains, and the bustling metropol","Longitude":"139.692","latitude":"35.6895","img":"https:\/\/th.bing.com\/th\/id\/OIP.894B2Fotr6V2CPyG7u6ShgHaE8?w=253&h=180&c=7&r=0&o=5&dpr=1.3&pid=1.7"},
{"countryID":"13","Country":"Turkey","city":"Ankara","Description":"Bridging Europe and Asia, Turkey offers a mix of ancient history, stunning architecture like the Hagia Sophia and Blue Mosque in Istanbul, beautiful coastlines, and unique cuisine.","Longitude":"32.854","latitude":"39.943","img":"https:\/\/th.bing.com\/th\/id\/OIP.vK_gOCRaVuOyFmx6ExUVFgHaEz?w=311&h=180&c=7&r=0&o=5&dpr=1.3&pid=1.7"},
{"countryID":"16","Country":"Australia","city":"Canberra","Description":"Known for its vast outback, unique wildlife such as kangaroos and koalas, cosmopolitan cities like Sydney and Melbourne, and the Great Barrier Reef.","Longitude":"149.129","latitude":"-35.2809","img":"https:\/\/th.bing.com\/th\/id\/OIP.obsClFf_o6dry4gG_dpB2AHaE8?w=248&h=180&c=7&r=0&o=5&dpr=1.3&pid=1.7"},
{"countryID":"17","Country":"Brazil","city":"Brazilia","Description":"Home to the Amazon Rainforest, vibrant Carnival celebrations, iconic Christ the Redeemer statue in Rio de Janeiro, and beautiful beaches like Copacabana and Ipanema.","Longitude":"-47.8825","latitude":"-15.7942","img":"https:\/\/th.bing.com\/th\/id\/OIP.82FGGSJHV0bxAp1er61BjwHaEK?w=281&h=180&c=7&r=0&o=5&dpr=1.3&pid=1.7"},
{"countryID":"18","Country":"Bahamas","city":"Nassau","Description":"An archipelago of stunning islands offering crystal-clear waters, beautiful beaches, and a relaxed Caribbean atmosphere, attracting tourists for snorkeling, diving, and luxury getaways.","Longitude":"-77.3963","latitude":"25.0343","img":"https:\/\/th.bing.com\/th\/id\/OIP.c_C980CIDI_xfOs34N6ZvwHaE8?w=264&h=180&c=7&r=0&o=5&dpr=1.3&pid=1.7"},
{"countryID":"19","Country":"South Korea","city":"Seoul","Description":"A blend of modernity and tradition, featuring vibrant cities like Seoul, historic sites such as Gyeongbokgung Palace, technological innovation, and delicious cuisine like kimchi and bulgogi.","Longitude":"126.972","latitude":"37.5667","img":"https:\/\/th.bing.com\/th\/id\/OIP.3IcrtTIBpGgBNxaM7Y4-hwHaE-?w=323&h=180&c=7&r=0&o=5&dpr=1.3&pid=1.7"}
]
